[
  {
    "city": "New York",
    "latitude": 40.7127837,
    "longitude": -74.0059413,
    "state": "NY"
  },
  {
    "city": "Los Angeles",
    "latitude": 34.0522342,
    "longitude": -118.2436849,
    "state": "CA"
  },
  {
    "city": "Chicago",
    "latitude": 41.8781136,
    "longitude": -87.6297982,
    "state": "IL"
  },
  {
    "city": "Houston",
    "latitude": 29.7604267,
    "longitude": -95.3698028,
    "state": "TX"
  },
  {
    "city": "Philadelphia",
    "latitude": 39.9525839,
    "longitude": -75.1652215,
    "state": "PA"
  },
  {
    "city": "Phoenix",
    "latitude": 33.4483771,
    "longitude": -112.0740373,
    "state": "AZ"
  },
  {
    "city": "San Antonio",
    "latitude": 29.4241219,
    "longitude": -98.49362819999999,
    "state": "TX"
  },
  {
    "city": "San Diego",
    "latitude": 32.715738,
    "longitude": -117.1610838,
    "state": "CA"
  },
  {
    "city": "Dallas",
    "latitude": 32.7766642,
    "longitude": -96.79698789999999,
    "state": "TX"
  },
  {
    "city": "San Jose",
    "latitude": 37.3382082,
    "longitude": -121.8863286,
    "state": "CA"
  },
  {
    "city": "Austin",
    "latitude": 30.267153,
    "longitude": -97.7430608,
    "state": "TX"
  },
  {
    "city": "Indianapolis",
    "latitude": 39.768403,
    "longitude": -86.158068,
    "state": "IN"
  },
  {
    "city": "Jacksonville",
    "latitude": 30.3321838,
    "longitude": -81.65565099999999,
    "state": "FL"
  },
  {
    "city": "San Francisco",
    "latitude": 37.7749295,
    "longitude": -122.4194155,
    "state": "CA"
  },
  {
    "city": "Columbus",
    "latitude": 39.9611755,
    "longitude": -82.99879419999999,
    "state": "OH"
  },
  {
    "city": "Charlotte",
    "latitude": 35.2270869,
    "longitude": -80.8431267,
    "state": "NC"
  },
  {
    "city": "Fort Worth",
    "latitude": 32.7554883,
    "longitude": -97.3307658,
    "state": "TX"
  },
  {
    "city": "Detroit",
    "latitude": 42.331427,
    "longitude": -83.0457538,
    "state": "MI"
  },
  {
    "city": "El Paso",
    "latitude": 31.7775757,
    "longitude": -106.4424559,
    "state": "TX"
  },
  {
    "city": "Memphis",
    "latitude": 35.1495343,
    "longitude": -90.0489801,
    "state": "TN"
  },
  {
    "city": "Seattle",
    "latitude": 47.6062095,
    "longitude": -122.3320708,
    "state": "WA"
  },
  {
    "city": "Denver",
    "latitude": 39.7392358,
    "longitude": -104.990251,
    "state": "CO"
  },
  {
    "city": "Washington",
    "latitude": 38.9071923,
    "longitude": -77.0368707,
    "state": "DC"
  },
  {
    "city": "Boston",
    "latitude": 42.3600825,
    "longitude": -71.0588801,
    "state": "MA"
  },
  {
    "city": "Nashville-Davidson",
    "latitude": 36.1626638,
    "longitude": -86.7816016,
    "state": "TN"
  },
  {
    "city": "Baltimore",
    "latitude": 39.2903848,
    "longitude": -76.6121893,
    "state": "MD"
  },
  {
    "city": "Oklahoma City",
    "latitude": 35.4675602,
    "longitude": -97.5164276,
    "state": "OK"
  },
  {
    "city": "Louisville/Jefferson County",
    "latitude": 38.2526647,
    "longitude": -85.7584557,
    "state": "KY"
  },
  {
    "city": "Portland",
    "latitude": 45.5230622,
    "longitude": -122.6764816,
    "state": "OR"
  },
  {
    "city": "Las Vegas",
    "latitude": 36.1699412,
    "longitude": -115.1398296,
    "state": "NV"
  },
  {
    "city": "Milwaukee",
    "latitude": 43.0389025,
    "longitude": -87.9064736,
    "state": "WI"
  },
  {
    "city": "Albuquerque",
    "latitude": 35.0853336,
    "longitude": -106.6055534,
    "state": "NM"
  },
  {
    "city": "Tucson",
    "latitude": 32.2217429,
    "longitude": -110.926479,
    "state": "AZ"
  },
  {
    "city": "Fresno",
    "latitude": 36.7468422,
    "longitude": -119.7725868,
    "state": "CA"
  },
  {
    "city": "Sacramento",
    "latitude": 38.5815719,
    "longitude": -121.4943996,
    "state": "CA"
  },
  {
    "city": "Long Beach",
    "latitude": 33.7700504,
    "longitude": -118.1937395,
    "state": "CA"
  },
  {
    "city": "Kansas City",
    "latitude": 39.0997265,
    "longitude": -94.5785667,
    "state": "MO"
  },
  {
    "city": "Mesa",
    "latitude": 33.4151843,
    "longitude": -111.8314724,
    "state": "AZ"
  },
  {
    "city": "Virginia Beach",
    "latitude": 36.8529263,
    "longitude": -75.97798499999999,
    "state": "VA"
  },
  {
    "city": "Atlanta",
    "latitude": 33.7489954,
    "longitude": -84.3879824,
    "state": "GA"
  },
  {
    "city": "Colorado Springs",
    "latitude": 38.8338816,
    "longitude": -104.8213634,
    "state": "CO"
  },
  {
    "city": "Omaha",
    "latitude": 41.2523634,
    "longitude": -95.99798829999999,
    "state": "NE"
  },
  {
    "city": "Raleigh",
    "latitude": 35.7795897,
    "longitude": -78.6381787,
    "state": "NC"
  },
  {
    "city": "Miami",
    "latitude": 25.7616798,
    "longitude": -80.1917902,
    "state": "FL"
  },
  {
    "city": "Oakland",
    "latitude": 37.8043637,
    "longitude": -122.2711137,
    "state": "CA"
  },
  {
    "city": "Minneapolis",
    "latitude": 44.977753,
    "longitude": -93.2650108,
    "state": "MN"
  },
  {
    "city": "Tulsa",
    "latitude": 36.1539816,
    "longitude": -95.99277500000001,
    "state": "OK"
  },
  {
    "city": "Cleveland",
    "latitude": 41.49932,
    "longitude": -81.6943605,
    "state": "OH"
  },
  {
    "city": "Wichita",
    "latitude": 37.688889,
    "longitude": -97.336111,
    "state": "KS"
  },
  {
    "city": "Arlington",
    "latitude": 32.735687,
    "longitude": -97.10806559999999,
    "state": "TX"
  },
  {
    "city": "New Orleans",
    "latitude": 29.95106579999999,
    "longitude": -90.0715323,
    "state": "LA"
  },
  {
    "city": "Bakersfield",
    "latitude": 35.3732921,
    "longitude": -119.0187125,
    "state": "CA"
  },
  {
    "city": "Tampa",
    "latitude": 27.950575,
    "longitude": -82.4571776,
    "state": "FL"
  },
  {
    "city": "Honolulu",
    "latitude": 21.3069444,
    "longitude": -157.8583333,
    "state": "HI"
  },
  {
    "city": "Aurora",
    "latitude": 39.7294319,
    "longitude": -104.8319195,
    "state": "CO"
  },
  {
    "city": "Anaheim",
    "latitude": 33.8352932,
    "longitude": -117.9145036,
    "state": "CA"
  },
  {
    "city": "Santa Ana",
    "latitude": 33.7455731,
    "longitude": -117.8678338,
    "state": "CA"
  },
  {
    "city": "St. Louis",
    "latitude": 38.6270025,
    "longitude": -90.19940419999999,
    "state": "MO"
  },
  {
    "city": "Riverside",
    "latitude": 33.9533487,
    "longitude": -117.3961564,
    "state": "CA"
  },
  {
    "city": "Corpus Christi",
    "latitude": 27.8005828,
    "longitude": -97.39638099999999,
    "state": "TX"
  },
  {
    "city": "Lexington-Fayette",
    "latitude": 38.0405837,
    "longitude": -84.5037164,
    "state": "KY"
  },
  {
    "city": "Pittsburgh",
    "latitude": 40.44062479999999,
    "longitude": -79.9958864,
    "state": "PA"
  },
  {
    "city": "Anchorage",
    "latitude": 61.2180556,
    "longitude": -149.9002778,
    "state": "AK"
  },
  {
    "city": "Stockton",
    "latitude": 37.9577016,
    "longitude": -121.2907796,
    "state": "CA"
  },
  {
    "city": "Cincinnati",
    "latitude": 39.1031182,
    "longitude": -84.5120196,
    "state": "OH"
  },
  {
    "city": "St. Paul",
    "latitude": 44.9537029,
    "longitude": -93.0899578,
    "state": "MN"
  },
  {
    "city": "Toledo",
    "latitude": 41.6639383,
    "longitude": -83.55521200000001,
    "state": "OH"
  },
  {
    "city": "Greensboro",
    "latitude": 36.0726354,
    "longitude": -79.7919754,
    "state": "NC"
  },
  {
    "city": "Newark",
    "latitude": 40.735657,
    "longitude": -74.1723667,
    "state": "NJ"
  },
  {
    "city": "Plano",
    "latitude": 33.0198431,
    "longitude": -96.6988856,
    "state": "TX"
  },
  {
    "city": "Henderson",
    "latitude": 36.0395247,
    "longitude": -114.9817213,
    "state": "NV"
  },
  {
    "city": "Lincoln",
    "latitude": 40.8257625,
    "longitude": -96.6851982,
    "state": "NE"
  },
  {
    "city": "Buffalo",
    "latitude": 42.88644679999999,
    "longitude": -78.8783689,
    "state": "NY"
  },
  {
    "city": "Jersey City",
    "latitude": 40.72815749999999,
    "longitude": -74.0776417,
    "state": "NJ"
  },
  {
    "city": "Chula Vista",
    "latitude": 32.6400541,
    "longitude": -117.0841955,
    "state": "CA"
  },
  {
    "city": "Fort Wayne",
    "latitude": 41.079273,
    "longitude": -85.1393513,
    "state": "IN"
  },
  {
    "city": "Orlando",
    "latitude": 28.5383355,
    "longitude": -81.3792365,
    "state": "FL"
  },
  {
    "city": "St. Petersburg",
    "latitude": 27.773056,
    "longitude": -82.64,
    "state": "FL"
  },
  {
    "city": "Chandler",
    "latitude": 33.3061605,
    "longitude": -111.8412502,
    "state": "AZ"
  },
  {
    "city": "Laredo",
    "latitude": 27.5305671,
    "longitude": -99.48032409999999,
    "state": "TX"
  },
  {
    "city": "Norfolk",
    "latitude": 36.8507689,
    "longitude": -76.28587259999999,
    "state": "VA"
  },
  {
    "city": "Durham",
    "latitude": 35.9940329,
    "longitude": -78.898619,
    "state": "NC"
  },
  {
    "city": "Madison",
    "latitude": 43.0730517,
    "longitude": -89.4012302,
    "state": "WI"
  },
  {
    "city": "Lubbock",
    "latitude": 33.5778631,
    "longitude": -101.8551665,
    "state": "TX"
  },
  {
    "city": "Irvine",
    "latitude": 33.6839473,
    "longitude": -117.7946942,
    "state": "CA"
  },
  {
    "city": "Winston-Salem",
    "latitude": 36.09985959999999,
    "longitude": -80.244216,
    "state": "NC"
  },
  {
    "city": "Glendale",
    "latitude": 33.5386523,
    "longitude": -112.1859866,
    "state": "AZ"
  },
  {
    "city": "Garland",
    "latitude": 32.912624,
    "longitude": -96.63888329999999,
    "state": "TX"
  },
  {
    "city": "Hialeah",
    "latitude": 25.8575963,
    "longitude": -80.2781057,
    "state": "FL"
  },
  {
    "city": "Reno",
    "latitude": 39.5296329,
    "longitude": -119.8138027,
    "state": "NV"
  },
  {
    "city": "Chesapeake",
    "latitude": 36.7682088,
    "longitude": -76.2874927,
    "state": "VA"
  },
  {
    "city": "Gilbert",
    "latitude": 33.3528264,
    "longitude": -111.789027,
    "state": "AZ"
  },
  {
    "city": "Baton Rouge",
    "latitude": 30.4582829,
    "longitude": -91.1403196,
    "state": "LA"
  },
  {
    "city": "Irving",
    "latitude": 32.8140177,
    "longitude": -96.9488945,
    "state": "TX"
  },
  {
    "city": "Scottsdale",
    "latitude": 33.4941704,
    "longitude": -111.9260519,
    "state": "AZ"
  },
  {
    "city": "North Las Vegas",
    "latitude": 36.1988592,
    "longitude": -115.1175013,
    "state": "NV"
  },
  {
    "city": "Fremont",
    "latitude": 37.5482697,
    "longitude": -121.9885719,
    "state": "CA"
  },
  {
    "city": "Boise City",
    "latitude": 43.6187102,
    "longitude": -116.2146068,
    "state": "ID"
  },
  {
    "city": "Richmond",
    "latitude": 37.5407246,
    "longitude": -77.4360481,
    "state": "VA"
  },
  {
    "city": "San Bernardino",
    "latitude": 34.1083449,
    "longitude": -117.2897652,
    "state": "CA"
  },
  {
    "city": "Birmingham",
    "latitude": 33.5206608,
    "longitude": -86.80248999999999,
    "state": "AL"
  },
  {
    "city": "Spokane",
    "latitude": 47.6587802,
    "longitude": -117.4260466,
    "state": "WA"
  },
  {
    "city": "Rochester",
    "latitude": 43.16103,
    "longitude": -77.6109219,
    "state": "NY"
  },
  {
    "city": "Des Moines",
    "latitude": 41.6005448,
    "longitude": -93.6091064,
    "state": "IA"
  },
  {
    "city": "Modesto",
    "latitude": 37.63909719999999,
    "longitude": -120.9968782,
    "state": "CA"
  },
  {
    "city": "Fayetteville",
    "latitude": 35.0526641,
    "longitude": -78.87835849999999,
    "state": "NC"
  },
  {
    "city": "Tacoma",
    "latitude": 47.2528768,
    "longitude": -122.4442906,
    "state": "WA"
  },
  {
    "city": "Oxnard",
    "latitude": 34.1975048,
    "longitude": -119.1770516,
    "state": "CA"
  },
  {
    "city": "Fontana",
    "latitude": 34.0922335,
    "longitude": -117.435048,
    "state": "CA"
  },
  {
    "city": "Columbus",
    "latitude": 32.4609764,
    "longitude": -84.9877094,
    "state": "GA"
  },
  {
    "city": "Montgomery",
    "latitude": 32.3668052,
    "longitude": -86.2999689,
    "state": "AL"
  },
  {
    "city": "Moreno Valley",
    "latitude": 33.9424658,
    "longitude": -117.2296717,
    "state": "CA"
  },
  {
    "city": "Shreveport",
    "latitude": 32.5251516,
    "longitude": -93.7501789,
    "state": "LA"
  },
  {
    "city": "Aurora",
    "latitude": 41.7605849,
    "longitude": -88.32007150000001,
    "state": "IL"
  },
  {
    "city": "Yonkers",
    "latitude": 40.9312099,
    "longitude": -73.89874689999999,
    "state": "NY"
  },
  {
    "city": "Akron",
    "latitude": 41.0814447,
    "longitude": -81.51900529999999,
    "state": "OH"
  },
  {
    "city": "Huntington Beach",
    "latitude": 33.660297,
    "longitude": -117.9992265,
    "state": "CA"
  },
  {
    "city": "Little Rock",
    "latitude": 34.7464809,
    "longitude": -92.28959479999999,
    "state": "AR"
  },
  {
    "city": "Augusta-Richmond County",
    "latitude": 33.4734978,
    "longitude": -82.0105148,
    "state": "GA"
  },
  {
    "city": "Amarillo",
    "latitude": 35.2219971,
    "longitude": -101.8312969,
    "state": "TX"
  },
  {
    "city": "Glendale",
    "latitude": 34.1425078,
    "longitude": -118.255075,
    "state": "CA"
  },
  {
    "city": "Mobile",
    "latitude": 30.6953657,
    "longitude": -88.0398912,
    "state": "AL"
  },
  {
    "city": "Grand Rapids",
    "latitude": 42.9633599,
    "longitude": -85.6680863,
    "state": "MI"
  },
  {
    "city": "Salt Lake City",
    "latitude": 40.7607793,
    "longitude": -111.8910474,
    "state": "UT"
  },
  {
    "city": "Tallahassee",
    "latitude": 30.4382559,
    "longitude": -84.28073289999999,
    "state": "FL"
  },
  {
    "city": "Huntsville",
    "latitude": 34.7303688,
    "longitude": -86.5861037,
    "state": "AL"
  },
  {
    "city": "Grand Prairie",
    "latitude": 32.7459645,
    "longitude": -96.99778459999999,
    "state": "TX"
  },
  {
    "city": "Knoxville",
    "latitude": 35.9606384,
    "longitude": -83.9207392,
    "state": "TN"
  },
  {
    "city": "Worcester",
    "latitude": 42.2625932,
    "longitude": -71.8022934,
    "state": "MA"
  },
  {
    "city": "Newport News",
    "latitude": 37.0870821,
    "longitude": -76.4730122,
    "state": "VA"
  },
  {
    "city": "Brownsville",
    "latitude": 25.9017472,
    "longitude": -97.4974838,
    "state": "TX"
  },
  {
    "city": "Overland Park",
    "latitude": 38.9822282,
    "longitude": -94.6707917,
    "state": "KS"
  },
  {
    "city": "Santa Clarita",
    "latitude": 34.3916641,
    "longitude": -118.542586,
    "state": "CA"
  },
  {
    "city": "Providence",
    "latitude": 41.8239891,
    "longitude": -71.4128343,
    "state": "RI"
  },
  {
    "city": "Garden Grove",
    "latitude": 33.7739053,
    "longitude": -117.9414477,
    "state": "CA"
  },
  {
    "city": "Chattanooga",
    "latitude": 35.0456297,
    "longitude": -85.3096801,
    "state": "TN"
  },
  {
    "city": "Oceanside",
    "latitude": 33.1958696,
    "longitude": -117.3794834,
    "state": "CA"
  },
  {
    "city": "Jackson",
    "latitude": 32.2987573,
    "longitude": -90.1848103,
    "state": "MS"
  },
  {
    "city": "Fort Lauderdale",
    "latitude": 26.1224386,
    "longitude": -80.13731740000001,
    "state": "FL"
  },
  {
    "city": "Santa Rosa",
    "latitude": 38.440429,
    "longitude": -122.7140548,
    "state": "CA"
  },
  {
    "city": "Rancho Cucamonga",
    "latitude": 34.10639889999999,
    "longitude": -117.5931084,
    "state": "CA"
  },
  {
    "city": "Port St. Lucie",
    "latitude": 27.2730492,
    "longitude": -80.3582261,
    "state": "FL"
  },
  {
    "city": "Tempe",
    "latitude": 33.4255104,
    "longitude": -111.9400054,
    "state": "AZ"
  },
  {
    "city": "Ontario",
    "latitude": 34.0633443,
    "longitude": -117.6508876,
    "state": "CA"
  },
  {
    "city": "Vancouver",
    "latitude": 45.6387281,
    "longitude": -122.6614861,
    "state": "WA"
  },
  {
    "city": "Cape Coral",
    "latitude": 26.5628537,
    "longitude": -81.9495331,
    "state": "FL"
  },
  {
    "city": "Sioux Falls",
    "latitude": 43.5445959,
    "longitude": -96.73110340000001,
    "state": "SD"
  },
  {
    "city": "Springfield",
    "latitude": 37.2089572,
    "longitude": -93.29229889999999,
    "state": "MO"
  },
  {
    "city": "Peoria",
    "latitude": 33.5805955,
    "longitude": -112.2373779,
    "state": "AZ"
  },
  {
    "city": "Pembroke Pines",
    "latitude": 26.007765,
    "longitude": -80.2962555,
    "state": "FL"
  },
  {
    "city": "Elk Grove",
    "latitude": 38.4087993,
    "longitude": -121.3716178,
    "state": "CA"
  },
  {
    "city": "Salem",
    "latitude": 44.9428975,
    "longitude": -123.0350963,
    "state": "OR"
  },
  {
    "city": "Lancaster",
    "latitude": 34.6867846,
    "longitude": -118.1541632,
    "state": "CA"
  },
  {
    "city": "Corona",
    "latitude": 33.8752935,
    "longitude": -117.5664384,
    "state": "CA"
  },
  {
    "city": "Eugene",
    "latitude": 44.0520691,
    "longitude": -123.0867536,
    "state": "OR"
  },
  {
    "city": "Palmdale",
    "latitude": 34.5794343,
    "longitude": -118.1164613,
    "state": "CA"
  },
  {
    "city": "Salinas",
    "latitude": 36.6777372,
    "longitude": -121.6555013,
    "state": "CA"
  },
  {
    "city": "Springfield",
    "latitude": 42.1014831,
    "longitude": -72.589811,
    "state": "MA"
  },
  {
    "city": "Pasadena",
    "latitude": 29.6910625,
    "longitude": -95.2091006,
    "state": "TX"
  },
  {
    "city": "Fort Collins",
    "latitude": 40.5852602,
    "longitude": -105.084423,
    "state": "CO"
  },
  {
    "city": "Hayward",
    "latitude": 37.6688205,
    "longitude": -122.0807964,
    "state": "CA"
  },
  {
    "city": "Pomona",
    "latitude": 34.055103,
    "longitude": -117.7499909,
    "state": "CA"
  },
  {
    "city": "Cary",
    "latitude": 35.79154,
    "longitude": -78.7811169,
    "state": "NC"
  },
  {
    "city": "Rockford",
    "latitude": 42.2711311,
    "longitude": -89.0939952,
    "state": "IL"
  },
  {
    "city": "Alexandria",
    "latitude": 38.8048355,
    "longitude": -77.0469214,
    "state": "VA"
  },
  {
    "city": "Escondido",
    "latitude": 33.1192068,
    "longitude": -117.086421,
    "state": "CA"
  },
  {
    "city": "McKinney",
    "latitude": 33.1972465,
    "longitude": -96.6397822,
    "state": "TX"
  },
  {
    "city": "Kansas City",
    "latitude": 39.114053,
    "longitude": -94.6274636,
    "state": "KS"
  },
  {
    "city": "Joliet",
    "latitude": 41.525031,
    "longitude": -88.0817251,
    "state": "IL"
  },
  {
    "city": "Sunnyvale",
    "latitude": 37.36883,
    "longitude": -122.0363496,
    "state": "CA"
  },
  {
    "city": "Torrance",
    "latitude": 33.8358492,
    "longitude": -118.3406288,
    "state": "CA"
  },
  {
    "city": "Bridgeport",
    "latitude": 41.1865478,
    "longitude": -73.19517669999999,
    "state": "CT"
  },
  {
    "city": "Lakewood",
    "latitude": 39.7047095,
    "longitude": -105.0813734,
    "state": "CO"
  },
  {
    "city": "Hollywood",
    "latitude": 26.0112014,
    "longitude": -80.1494901,
    "state": "FL"
  },
  {
    "city": "Paterson",
    "latitude": 40.9167654,
    "longitude": -74.17181099999999,
    "state": "NJ"
  },
  {
    "city": "Naperville",
    "latitude": 41.7508391,
    "longitude": -88.1535352,
    "state": "IL"
  },
  {
    "city": "Syracuse",
    "latitude": 43.0481221,
    "longitude": -76.14742439999999,
    "state": "NY"
  },
  {
    "city": "Mesquite",
    "latitude": 32.76679550000001,
    "longitude": -96.5991593,
    "state": "TX"
  },
  {
    "city": "Dayton",
    "latitude": 39.7589478,
    "longitude": -84.1916069,
    "state": "OH"
  },
  {
    "city": "Savannah",
    "latitude": 32.0835407,
    "longitude": -81.09983419999999,
    "state": "GA"
  },
  {
    "city": "Clarksville",
    "latitude": 36.5297706,
    "longitude": -87.3594528,
    "state": "TN"
  },
  {
    "city": "Orange",
    "latitude": 33.7877944,
    "longitude": -117.8531119,
    "state": "CA"
  },
  {
    "city": "Pasadena",
    "latitude": 34.1477849,
    "longitude": -118.1445155,
    "state": "CA"
  },
  {
    "city": "Fullerton",
    "latitude": 33.8703596,
    "longitude": -117.9242966,
    "state": "CA"
  },
  {
    "city": "Killeen",
    "latitude": 31.1171194,
    "longitude": -97.72779589999999,
    "state": "TX"
  },
  {
    "city": "Frisco",
    "latitude": 33.1506744,
    "longitude": -96.82361159999999,
    "state": "TX"
  },
  {
    "city": "Hampton",
    "latitude": 37.0298687,
    "longitude": -76.34522179999999,
    "state": "VA"
  },
  {
    "city": "McAllen",
    "latitude": 26.2034071,
    "longitude": -98.23001239999999,
    "state": "TX"
  },
  {
    "city": "Warren",
    "latitude": 42.5144566,
    "longitude": -83.01465259999999,
    "state": "MI"
  },
  {
    "city": "Bellevue",
    "latitude": 47.610377,
    "longitude": -122.2006786,
    "state": "WA"
  },
  {
    "city": "West Valley City",
    "latitude": 40.6916132,
    "longitude": -112.0010501,
    "state": "UT"
  },
  {
    "city": "Columbia",
    "latitude": 34.0007104,
    "longitude": -81.0348144,
    "state": "SC"
  },
  {
    "city": "Olathe",
    "latitude": 38.8813958,
    "longitude": -94.81912849999999,
    "state": "KS"
  },
  {
    "city": "Sterling Heights",
    "latitude": 42.5803122,
    "longitude": -83.0302033,
    "state": "MI"
  },
  {
    "city": "New Haven",
    "latitude": 41.308274,
    "longitude": -72.9278835,
    "state": "CT"
  },
  {
    "city": "Miramar",
    "latitude": 25.9860762,
    "longitude": -80.30356019999999,
    "state": "FL"
  },
  {
    "city": "Waco",
    "latitude": 31.549333,
    "longitude": -97.1466695,
    "state": "TX"
  },
  {
    "city": "Thousand Oaks",
    "latitude": 34.1705609,
    "longitude": -118.8375937,
    "state": "CA"
  },
  {
    "city": "Cedar Rapids",
    "latitude": 41.9778795,
    "longitude": -91.6656232,
    "state": "IA"
  },
  {
    "city": "Charleston",
    "latitude": 32.7764749,
    "longitude": -79.93105120000001,
    "state": "SC"
  },
  {
    "city": "Visalia",
    "latitude": 36.3302284,
    "longitude": -119.2920585,
    "state": "CA"
  },
  {
    "city": "Topeka",
    "latitude": 39.0558235,
    "longitude": -95.68901849999999,
    "state": "KS"
  },
  {
    "city": "Elizabeth",
    "latitude": 40.6639916,
    "longitude": -74.2107006,
    "state": "NJ"
  },
  {
    "city": "Gainesville",
    "latitude": 29.6516344,
    "longitude": -82.32482619999999,
    "state": "FL"
  },
  {
    "city": "Thornton",
    "latitude": 39.8680412,
    "longitude": -104.9719243,
    "state": "CO"
  },
  {
    "city": "Roseville",
    "latitude": 38.7521235,
    "longitude": -121.2880059,
    "state": "CA"
  },
  {
    "city": "Carrollton",
    "latitude": 32.9756415,
    "longitude": -96.8899636,
    "state": "TX"
  },
  {
    "city": "Coral Springs",
    "latitude": 26.271192,
    "longitude": -80.2706044,
    "state": "FL"
  },
  {
    "city": "Stamford",
    "latitude": 41.0534302,
    "longitude": -73.5387341,
    "state": "CT"
  },
  {
    "city": "Simi Valley",
    "latitude": 34.2694474,
    "longitude": -118.781482,
    "state": "CA"
  },
  {
    "city": "Concord",
    "latitude": 37.9779776,
    "longitude": -122.0310733,
    "state": "CA"
  },
  {
    "city": "Hartford",
    "latitude": 41.76371109999999,
    "longitude": -72.6850932,
    "state": "CT"
  },
  {
    "city": "Kent",
    "latitude": 47.3809335,
    "longitude": -122.2348431,
    "state": "WA"
  },
  {
    "city": "Lafayette",
    "latitude": 30.2240897,
    "longitude": -92.0198427,
    "state": "LA"
  },
  {
    "city": "Midland",
    "latitude": 31.9973456,
    "longitude": -102.0779146,
    "state": "TX"
  },
  {
    "city": "Surprise",
    "latitude": 33.6292337,
    "longitude": -112.3679279,
    "state": "AZ"
  },
  {
    "city": "Denton",
    "latitude": 33.2148412,
    "longitude": -97.13306829999999,
    "state": "TX"
  },
  {
    "city": "Victorville",
    "latitude": 34.5362184,
    "longitude": -117.2927641,
    "state": "CA"
  },
  {
    "city": "Evansville",
    "latitude": 37.9715592,
    "longitude": -87.5710898,
    "state": "IN"
  },
  {
    "city": "Santa Clara",
    "latitude": 37.3541079,
    "longitude": -121.9552356,
    "state": "CA"
  },
  {
    "city": "Abilene",
    "latitude": 32.4487364,
    "longitude": -99.73314390000002,
    "state": "TX"
  },
  {
    "city": "Athens-Clarke County",
    "latitude": 33.9519347,
    "longitude": -83.357567,
    "state": "GA"
  },
  {
    "city": "Vallejo",
    "latitude": 38.1040864,
    "longitude": -122.2566367,
    "state": "CA"
  },
  {
    "city": "Allentown",
    "latitude": 40.6084305,
    "longitude": -75.4901833,
    "state": "PA"
  },
  {
    "city": "Norman",
    "latitude": 35.2225668,
    "longitude": -97.4394777,
    "state": "OK"
  },
  {
    "city": "Beaumont",
    "latitude": 30.080174,
    "longitude": -94.1265562,
    "state": "TX"
  },
  {
    "city": "Independence",
    "latitude": 39.0911161,
    "longitude": -94.41550679999999,
    "state": "MO"
  },
  {
    "city": "Murfreesboro",
    "latitude": 35.8456213,
    "longitude": -86.39027,
    "state": "TN"
  },
  {
    "city": "Ann Arbor",
    "latitude": 42.2808256,
    "longitude": -83.7430378,
    "state": "MI"
  },
  {
    "city": "Springfield",
    "latitude": 39.78172130000001,
    "longitude": -89.6501481,
    "state": "IL"
  },
  {
    "city": "Berkeley",
    "latitude": 37.8715926,
    "longitude": -122.272747,
    "state": "CA"
  },
  {
    "city": "Peoria",
    "latitude": 40.6936488,
    "longitude": -89.5889864,
    "state": "IL"
  },
  {
    "city": "Provo",
    "latitude": 40.2338438,
    "longitude": -111.6585337,
    "state": "UT"
  },
  {
    "city": "El Monte",
    "latitude": 34.0686206,
    "longitude": -118.0275667,
    "state": "CA"
  },
  {
    "city": "Columbia",
    "latitude": 38.9517053,
    "longitude": -92.3340724,
    "state": "MO"
  },
  {
    "city": "Lansing",
    "latitude": 42.732535,
    "longitude": -84.5555347,
    "state": "MI"
  },
  {
    "city": "Fargo",
    "latitude": 46.8771863,
    "longitude": -96.7898034,
    "state": "ND"
  },
  {
    "city": "Downey",
    "latitude": 33.9401088,
    "longitude": -118.1331593,
    "state": "CA"
  },
  {
    "city": "Costa Mesa",
    "latitude": 33.6411316,
    "longitude": -117.9186689,
    "state": "CA"
  },
  {
    "city": "Wilmington",
    "latitude": 34.2257255,
    "longitude": -77.9447102,
    "state": "NC"
  },
  {
    "city": "Arvada",
    "latitude": 39.8027644,
    "longitude": -105.0874842,
    "state": "CO"
  },
  {
    "city": "Inglewood",
    "latitude": 33.9616801,
    "longitude": -118.3531311,
    "state": "CA"
  },
  {
    "city": "Miami Gardens",
    "latitude": 25.9420377,
    "longitude": -80.2456045,
    "state": "FL"
  },
  {
    "city": "Carlsbad",
    "latitude": 33.1580933,
    "longitude": -117.3505939,
    "state": "CA"
  },
  {
    "city": "Westminster",
    "latitude": 39.8366528,
    "longitude": -105.0372046,
    "state": "CO"
  },
  {
    "city": "Rochester",
    "latitude": 44.0121221,
    "longitude": -92.4801989,
    "state": "MN"
  },
  {
    "city": "Odessa",
    "latitude": 31.8456816,
    "longitude": -102.3676431,
    "state": "TX"
  },
  {
    "city": "Manchester",
    "latitude": 42.9956397,
    "longitude": -71.4547891,
    "state": "NH"
  },
  {
    "city": "Elgin",
    "latitude": 42.0354084,
    "longitude": -88.2825668,
    "state": "IL"
  },
  {
    "city": "West Jordan",
    "latitude": 40.6096698,
    "longitude": -111.9391031,
    "state": "UT"
  }
]
